sensor_id,timestamp,track_section,gps_lat,gps_lon,acc_x_ms2,acc_y_ms2,acc_z_ms2,gyro_roll,gyro_pitch,gyro_yaw,vibration_magnitude,vibration_spike_pct,is_anomaly,aknn_distance_to_baseline,anomaly_confidence,flag_dispatched_to_pillar_d
DEV-16256,2026-06-10 23:34:25.000,Mumbai-Pune,18.52°N,73.86°E,0.0723,-0.0048,9.8819,0.0071,-0.0131,-0.01,0.1021,0,False,0.0654,0.0,False
DEV-92279,2026-06-13 02:32:47.000,Vadodara-Surat,22.30°N,73.10°E,-0.0138,-0.0054,9.7789,0.0124,-0.0007,-0.0198,0.0345,0,False,0.0599,0.0,False
DEV-42457,2026-06-12 19:29:39.000,Kolkata-Asansol,23.68°N,86.98°E,-0.0677,0.1695,9.8515,-0.0239,0.0124,0.0113,0.1872,56.0,False,0.0263,0.0,False
DEV-65690,2026-06-11 19:36:24.000,Kolkata-Asansol,23.68°N,86.98°E,0.0295,-0.13,9.861,0.0168,-0.0075,0.0035,0.1427,18.9,False,0.0733,0.0,False
DEV-75382,2026-06-11 16:40:46.000,Delhi-Agra,27.18°N,78.01°E,-0.1249,0.1074,9.7277,-0.0127,-0.0124,0.0072,0.1841,53.4,False,0.0582,0.0,False
DEV-26958,2026-06-11 14:02:44.000,Jaipur-Ajmer,26.45°N,74.64°E,-0.4029,0.0212,9.83,-0.01,0.022,0.0169,0.404,236.7,False,0.0781,0.0,False
DEV-88852,2026-06-11 19:22:08.000,Kolkata-Asansol,23.68°N,86.98°E,0.0395,0.1322,9.8058,-0.048,-0.0336,0.027,0.138,15.0,False,0.0711,0.0,False
DEV-13667,2026-06-10 14:02:03.000,Vadodara-Surat,22.30°N,73.10°E,-0.0449,0.1415,9.8604,0.0115,-0.0118,0.0089,0.1568,30.7,False,0.0675,0.0,False
DEV-81766,2026-06-10 16:21:01.000,Kolkata-Asansol,23.68°N,86.98°E,0.118,-0.0396,9.7994,0.0124,-0.0001,-0.001,0.1249,4.1,False,0.0409,0.0,False
DEV-89391,2026-06-12 21:22:57.000,Vadodara-Surat,22.30°N,73.10°E,-0.1737,-0.0687,9.923,-0.0204,-0.0315,0.0037,0.2183,81.9,False,0.028,0.0,False
DEV-91735,2026-06-10 16:05:12.000,Kolkata-Asansol,23.68°N,86.98°E,0.0163,-0.1775,9.8865,0.026,0.0237,0.0112,0.194,61.7,False,0.0446,0.0,False
DEV-13251,2026-06-10 22:57:12.000,Chennai-Vellore,12.91°N,79.13°E,0.2143,0.0508,9.7496,0.0056,0.0102,0.0048,0.2284,90.3,False,0.0543,0.0,False
DEV-84743,2026-06-12 15:58:28.000,Jaipur-Ajmer,26.45°N,74.64°E,-0.1319,-0.1364,9.9815,0.0254,-0.0325,-0.0066,0.2558,113.2,False,0.0513,0.0,False
DEV-85963,2026-06-12 12:39:14.000,Chennai-Vellore,12.91°N,79.13°E,0.2183,0.0206,9.6092,-0.0102,-0.0021,0.0101,0.2973,147.8,False,0.0467,0.0,False
DEV-79193,2026-06-12 16:45:29.000,Kolkata-Asansol,23.68°N,86.98°E,-0.0371,0.0211,9.8212,-0.0033,-0.0191,0.006,0.0441,0,False,0.039,0.0,False
DEV-63382,2026-06-11 00:43:37.000,Vadodara-Surat,22.30°N,73.10°E,0.0739,0.0426,9.848,0.0121,0.0145,0.0069,0.0934,0,False,0.0607,0.0,False
DEV-43807,2026-06-10 10:17:23.000,Kolkata-Asansol,23.68°N,86.98°E,0.099,0.1724,9.7992,0.0087,0.0264,0.0247,0.1991,65.9,False,0.0425,0.0,False
DEV-45296,2026-06-12 18:16:27.000,Vadodara-Surat,22.30°N,73.10°E,0.1581,2.018,9.901,0.4751,-0.8546,-0.0204,2.0262,1588.5,True,0.4955,0.947,True
DEV-82706,2026-06-11 17:15:22.000,Vadodara-Surat,22.30°N,73.10°E,0.0319,0.2489,9.7853,0.0511,-0.0068,-0.0101,0.2521,110.1,False,0.0591,0.0,False
DEV-32044,2026-06-10 15:08:37.000,Mumbai-Pune,18.52°N,73.86°E,-0.2737,0.0773,9.6702,-0.0001,0.0156,0.0146,0.3169,164.1,False,0.0669,0.0,False
DEV-31939,2026-06-11 21:08:31.000,Chennai-Vellore,12.91°N,79.13°E,-0.0412,-0.0119,9.8882,-0.0471,-0.0211,-0.015,0.0892,0,False,0.02,0.0,False
DEV-46872,2026-06-13 01:58:33.000,Chennai-Vellore,12.91°N,79.13°E,-0.0013,0.1811,9.9638,-0.0002,0.0089,0.028,0.2376,98.0,False,0.0227,0.0,False
DEV-66618,2026-06-12 11:49:32.000,Kolkata-Asansol,23.68°N,86.98°E,-0.0471,0.1143,9.8414,0.0077,-0.0152,-0.0042,0.1275,6.2,False,0.0327,0.0,False
DEV-52157,2026-06-11 18:45:35.000,Mumbai-Pune,18.52°N,73.86°E,0.2006,-0.0573,9.9345,-0.004,-0.0042,0.0219,0.2429,102.4,False,0.0405,0.0,False
DEV-32745,2026-06-11 15:28:53.000,Kolkata-Asansol,23.68°N,86.98°E,0.0689,-0.0331,9.9068,-0.0129,0.0028,0.0001,0.1233,2.8,False,0.0448,0.0,False
DEV-98029,2026-06-12 23:11:29.000,Jaipur-Ajmer,26.45°N,74.64°E,0.0146,-0.1487,9.8369,-0.0282,0.0044,0.0018,0.1518,26.5,False,0.0467,0.0,False
DEV-26353,2026-06-10 14:59:12.000,Mumbai-Pune,18.52°N,73.86°E,-0.1451,0.1141,9.6942,0.025,0.0218,-0.0399,0.2179,81.6,False,0.0478,0.0,False
DEV-90405,2026-06-13 02:10:31.000,Delhi-Agra,27.18°N,78.01°E,0.0053,0.0236,9.7749,0.0442,-0.0054,0.0051,0.0426,0,False,0.0575,0.0,False
DEV-10935,2026-06-12 16:52:01.000,Jaipur-Ajmer,26.45°N,74.64°E,0.3893,-0.0391,9.9007,0.0053,-0.0078,-0.0196,0.4016,234.7,False,0.0318,0.0,False
DEV-99441,2026-06-12 17:47:32.000,Jaipur-Ajmer,26.45°N,74.64°E,0.1332,-0.1136,9.7087,0.001,-0.0139,-0.0163,0.2023,68.6,False,0.0562,0.0,False
DEV-45956,2026-06-10 18:46:53.000,Vadodara-Surat,22.30°N,73.10°E,-0.002,-0.0626,9.9538,-0.0159,0.0237,-0.0165,0.1568,30.7,False,0.0315,0.0,False
DEV-94012,2026-06-12 07:22:08.000,Vadodara-Surat,22.30°N,73.10°E,-0.0649,-0.1387,9.8081,0.0256,-0.0452,0.0101,0.1531,27.6,False,0.0604,0.0,False
DEV-77797,2026-06-12 05:20:01.000,Vadodara-Surat,22.30°N,73.10°E,-0.1281,0.2075,9.776,0.0056,-0.0232,-0.002,0.2462,105.2,False,0.0655,0.0,False
DEV-84949,2026-06-12 22:21:23.000,Jaipur-Ajmer,26.45°N,74.64°E,-0.0273,0.1233,9.8023,0.0006,0.0028,0.0058,0.1265,5.4,False,0.0685,0.0,False
DEV-22678,2026-06-12 11:41:56.000,Delhi-Agra,27.18°N,78.01°E,-0.0524,0.0217,9.81,0.012,-0.0105,0.0195,0.0567,0,False,0.0217,0.0,False
DEV-17134,2026-06-11 13:27:12.000,Vadodara-Surat,22.30°N,73.10°E,-0.0949,-0.0772,9.8099,0.0096,0.0013,0.0137,0.1223,1.9,False,0.0693,0.0,False
DEV-17954,2026-06-11 19:50:29.000,Delhi-Agra,27.18°N,78.01°E,0.0336,-0.1647,9.8199,-0.0279,-0.0074,-0.003,0.1684,40.3,False,0.075,0.0,False
DEV-66602,2026-06-11 09:28:51.000,Mumbai-Pune,18.52°N,73.86°E,-0.0913,-0.1965,9.9433,0.0137,0.0259,0.007,0.2544,112.0,False,0.0239,0.0,False
DEV-96471,2026-06-12 07:20:19.000,Vadodara-Surat,22.30°N,73.10°E,-0.0409,0.113,9.9201,0.0189,0.0029,0.0202,0.163,35.8,False,0.0574,0.0,False
DEV-77792,2026-06-11 15:00:59.000,Chennai-Vellore,12.91°N,79.13°E,-0.1878,0.0729,9.9033,0.0172,-0.0021,-0.0031,0.222,85.0,False,0.0397,0.0,False
DEV-43591,2026-06-10 20:00:57.000,Vadodara-Surat,22.30°N,73.10°E,-0.0464,-0.0253,9.8229,-0.0127,-0.0255,-0.0095,0.0544,0,False,0.0413,0.0,False
DEV-95420,2026-06-11 17:03:15.000,Jaipur-Ajmer,26.45°N,74.64°E,0.032,0.0601,9.8502,0.0029,-0.0207,-0.0091,0.0791,0,False,0.0653,0.0,False
DEV-86865,2026-06-11 04:39:36.000,Kolkata-Asansol,23.68°N,86.98°E,0.0135,-0.0669,9.7836,0.0171,-0.0017,0.0014,0.0732,0,False,0.0595,0.0,False
DEV-36379,2026-06-10 16:31:46.000,Vadodara-Surat,22.30°N,73.10°E,0.0809,-0.1394,9.8792,0.0062,0.0283,-0.0032,0.1754,46.2,False,0.0671,0.0,False
DEV-90753,2026-06-11 06:52:15.000,Delhi-Agra,27.18°N,78.01°E,-0.1445,-0.3197,9.7519,-0.0105,-0.0453,-0.0182,0.3556,196.3,False,0.038,0.0,False
DEV-71149,2026-06-11 05:55:45.000,Delhi-Agra,27.18°N,78.01°E,0.2347,-0.1851,9.6303,0.0011,-0.0198,-0.0177,0.3488,190.7,False,0.0574,0.0,False
DEV-57555,2026-06-10 23:24:17.000,Chennai-Vellore,12.91°N,79.13°E,0.1287,-0.0316,9.8066,-0.0135,0.0243,0.0416,0.1326,10.5,False,0.0206,0.0,False
DEV-36099,2026-06-11 08:03:37.000,Vadodara-Surat,22.30°N,73.10°E,0.1011,0.1009,9.6901,-0.0324,-0.0347,0.0315,0.1865,55.4,False,0.0319,0.0,False
DEV-23263,2026-06-10 18:40:51.000,Delhi-Agra,27.18°N,78.01°E,-0.0266,-0.1073,9.7627,-0.0042,0.0381,0.0039,0.1202,0.2,False,0.0213,0.0,False
DEV-96626,2026-06-12 07:19:50.000,Delhi-Agra,27.18°N,78.01°E,0.0169,-0.0566,9.8728,-0.0067,0.0023,0.0273,0.0862,0,False,0.0303,0.0,False
DEV-59570,2026-06-11 20:22:10.000,Kolkata-Asansol,23.68°N,86.98°E,0.0398,-0.0305,9.9219,0.0358,0.0036,-0.0094,0.1226,2.2,False,0.0617,0.0,False
DEV-29472,2026-06-11 05:09:09.000,Kolkata-Asansol,23.68°N,86.98°E,-0.2217,-0.2041,9.8187,-0.0265,0.0102,-0.0099,0.3015,151.3,False,0.0397,0.0,False
DEV-71691,2026-06-10 09:52:41.000,Jaipur-Ajmer,26.45°N,74.64°E,0.2043,-0.1679,9.9734,-0.0082,0.0021,0.006,0.3109,159.1,False,0.0675,0.0,False
DEV-59005,2026-06-12 02:46:28.000,Vadodara-Surat,22.30°N,73.10°E,-0.2368,0.1605,9.8106,-0.0194,-0.0125,-0.0011,0.2861,138.4,False,0.0515,0.0,False
DEV-36607,2026-06-11 17:11:33.000,Jaipur-Ajmer,26.45°N,74.64°E,-0.1952,0.026,9.7185,-0.027,-0.008,-0.0083,0.2171,80.9,False,0.0471,0.0,False
DEV-21013,2026-06-10 23:04:02.000,Chennai-Vellore,12.91°N,79.13°E,-0.13,0.053,9.8947,0.0321,-0.0002,0.0063,0.164,36.7,False,0.0377,0.0,False
DEV-75213,2026-06-11 19:46:45.000,Mumbai-Pune,18.52°N,73.86°E,0.1738,0.0368,9.7647,0.0188,-0.0174,0.0059,0.1833,52.8,False,0.039,0.0,False
DEV-94365,2026-06-11 09:50:36.000,Vadodara-Surat,22.30°N,73.10°E,0.022,0.1719,9.789,0.0064,0.0132,-0.015,0.1746,45.5,False,0.0247,0.0,False
DEV-99592,2026-06-11 02:07:43.000,Delhi-Agra,27.18°N,78.01°E,0.0378,0.0145,9.8263,0.0126,-0.0081,0.0112,0.0436,0,False,0.0707,0.0,False
DEV-46942,2026-06-10 19:52:55.000,Jaipur-Ajmer,26.45°N,74.64°E,0.1909,0.1797,9.7889,-0.0245,-0.0024,0.0257,0.263,119.2,False,0.0693,0.0,False
DEV-62101,2026-06-12 15:01:32.000,Chennai-Vellore,12.91°N,79.13°E,0.1102,-0.1818,9.9262,0.0022,0.0491,-0.0025,0.2423,101.9,False,0.0337,0.0,False
DEV-21255,2026-06-12 10:40:18.000,Jaipur-Ajmer,26.45°N,74.64°E,0.0204,0.1588,9.7249,-0.0073,0.0072,-0.0126,0.1813,51.1,False,0.0388,0.0,False
DEV-26822,2026-06-10 19:40:42.000,Chennai-Vellore,12.91°N,79.13°E,-0.0331,-0.0779,9.7127,0.0079,-0.0185,0.0139,0.129,7.5,False,0.0383,0.0,False
DEV-80464,2026-06-12 11:43:31.000,Vadodara-Surat,22.30°N,73.10°E,-0.0761,-0.0944,9.8229,0.0208,0.0006,-0.0254,0.1219,1.6,False,0.038,0.0,False
DEV-89670,2026-06-12 00:44:26.000,Vadodara-Surat,22.30°N,73.10°E,0.0804,0.0132,10.0644,-0.0092,-0.0326,-0.0112,0.2671,122.6,False,0.0544,0.0,False
DEV-49930,2026-06-11 10:27:48.000,Chennai-Vellore,12.91°N,79.13°E,-0.1434,0.0941,9.8245,0.0089,-0.0199,-0.007,0.1721,43.4,False,0.0256,0.0,False
DEV-47200,2026-06-10 13:35:45.000,Jaipur-Ajmer,26.45°N,74.64°E,0.2246,0.0367,9.7587,0.0009,0.0465,0.0163,0.2333,94.4,False,0.0324,0.0,False
DEV-24515,2026-06-11 03:11:51.000,Jaipur-Ajmer,26.45°N,74.64°E,-0.1381,0.0323,9.881,0.0012,0.0168,-0.008,0.1586,32.2,False,0.0277,0.0,False
DEV-97135,2026-06-11 12:28:04.000,Chennai-Vellore,12.91°N,79.13°E,-0.2487,0.1667,9.8537,0.0389,-0.0135,0.0258,0.3026,152.2,False,0.0485,0.0,False
DEV-18384,2026-06-12 01:57:38.000,Kolkata-Asansol,23.68°N,86.98°E,-0.1511,-0.0741,9.7844,-0.0147,0.0111,0.0004,0.1702,41.8,False,0.0695,0.0,False
DEV-69809,2026-06-12 02:02:37.000,Delhi-Agra,27.18°N,78.01°E,0.2607,-0.1318,9.7084,0.0065,-0.0013,-0.0123,0.3093,157.8,False,0.0408,0.0,False
DEV-66633,2026-06-12 19:21:32.000,Jaipur-Ajmer,26.45°N,74.64°E,-0.2165,0.1413,9.8586,-0.0168,0.0119,0.0188,0.2631,119.2,False,0.0475,0.0,False
DEV-92324,2026-06-13 00:19:29.000,Jaipur-Ajmer,26.45°N,74.64°E,-0.1363,-0.0502,9.8658,-0.005,0.011,-0.0087,0.1556,29.7,False,0.0523,0.0,False
DEV-20031,2026-06-12 06:32:40.000,Vadodara-Surat,22.30°N,73.10°E,-0.0181,-0.0827,9.5603,0.0026,-0.0619,-0.016,0.2637,119.7,False,0.0653,0.0,False
DEV-70542,2026-06-11 18:43:44.000,Mumbai-Pune,18.52°N,73.86°E,0.0521,0.0704,9.8279,0.0013,-0.0193,-0.0172,0.0894,0,False,0.0429,0.0,False
DEV-73538,2026-06-12 12:19:08.000,Chennai-Vellore,12.91°N,79.13°E,-0.0176,0.0107,9.9442,0.0295,-0.0155,0.0221,0.1358,13.2,False,0.0477,0.0,False
DEV-89559,2026-06-10 12:00:39.000,Kolkata-Asansol,23.68°N,86.98°E,-0.0365,-0.1254,9.7464,0.003,0.0202,0.0243,0.1453,21.1,False,0.026,0.0,False
DEV-38399,2026-06-11 03:25:08.000,Vadodara-Surat,22.30°N,73.10°E,-0.0467,0.0305,9.8203,-0.03,0.0107,0.0116,0.0567,0,False,0.0629,0.0,False
DEV-23473,2026-06-12 23:00:12.000,Jaipur-Ajmer,26.45°N,74.64°E,-0.0439,0.0134,9.7455,-0.0182,-0.0153,-0.0188,0.0792,0,False,0.0434,0.0,False
DEV-21978,2026-06-11 04:27:05.000,Chennai-Vellore,12.91°N,79.13°E,3.0957,0.0756,10.0321,-0.9143,-0.1823,0.157,3.1046,2487.2,True,0.462,0.912,False
DEV-15768,2026-06-12 17:44:56.000,Delhi-Agra,27.18°N,78.01°E,0.3493,0.1171,9.9348,0.0217,-0.0165,-0.0206,0.389,224.2,False,0.0449,0.0,False
DEV-23878,2026-06-10 13:50:28.000,Mumbai-Pune,18.52°N,73.86°E,-0.1468,-0.1201,9.8835,-0.008,-0.0131,0.0048,0.2034,69.5,False,0.0414,0.0,False
DEV-58362,2026-06-10 18:38:33.000,Vadodara-Surat,22.30°N,73.10°E,-0.0602,0.109,9.7814,0.0019,0.0115,-0.0199,0.1278,6.5,False,0.0226,0.0,False
DEV-84606,2026-06-12 22:28:38.000,Delhi-Agra,27.18°N,78.01°E,0.0194,-0.1403,9.9361,-0.0019,0.0116,-0.0328,0.1896,58.0,False,0.0303,0.0,False
DEV-93277,2026-06-13 03:50:05.000,Vadodara-Surat,22.30°N,73.10°E,0.23,-0.0216,9.7162,-0.0482,-0.0062,-0.0126,0.2493,107.8,False,0.0657,0.0,False
DEV-40464,2026-06-12 08:04:16.000,Mumbai-Pune,18.52°N,73.86°E,-0.0281,-0.0388,9.9853,0.0049,-0.0227,0.0057,0.1817,51.4,False,0.0502,0.0,False
DEV-17854,2026-06-12 09:18:34.000,Vadodara-Surat,22.30°N,73.10°E,-0.238,-0.1707,9.7627,0.0305,0.0013,-0.0208,0.2967,147.2,False,0.0283,0.0,False
DEV-53082,2026-06-11 18:18:58.000,Mumbai-Pune,18.52°N,73.86°E,-0.1527,0.1211,9.8196,0.0321,0.0216,-0.0012,0.1951,62.6,False,0.0281,0.0,False
DEV-53420,2026-06-11 05:07:20.000,Jaipur-Ajmer,26.45°N,74.64°E,0.2575,0.0524,9.684,0.0187,0.0,-0.0108,0.2914,142.8,False,0.0406,0.0,False
DEV-78350,2026-06-10 20:59:13.000,Kolkata-Asansol,23.68°N,86.98°E,4.6699,-2.214,10.2514,-0.5855,0.1224,0.6,5.187,4222.5,True,0.6912,0.945,False
DEV-36787,2026-06-12 21:20:30.000,Chennai-Vellore,12.91°N,79.13°E,0.0753,0.1592,9.8441,0.0105,0.0225,0.011,0.1794,49.5,False,0.0342,0.0,False
DEV-68755,2026-06-10 11:41:30.000,Chennai-Vellore,12.91°N,79.13°E,-0.0904,0.1778,9.8116,0.0125,0.0001,0.0123,0.1995,66.3,False,0.0781,0.0,False
DEV-89874,2026-06-10 20:39:56.000,Mumbai-Pune,18.52°N,73.86°E,-0.3658,0.0348,9.7605,0.015,-0.0206,0.0029,0.3708,209.0,False,0.0641,0.0,False
DEV-88011,2026-06-12 13:21:54.000,Delhi-Agra,27.18°N,78.01°E,0.0081,-0.0231,9.6946,0.0266,0.0025,-0.0338,0.118,0,False,0.0522,0.0,False
DEV-71506,2026-06-11 22:15:26.000,Jaipur-Ajmer,26.45°N,74.64°E,-0.0937,0.07,9.7887,0.0251,-0.0179,0.0016,0.1189,0,False,0.0317,0.0,False
DEV-58908,2026-06-13 00:42:38.000,Delhi-Agra,27.18°N,78.01°E,1.8809,-1.8551,9.165,0.2894,-0.3028,0.1517,2.7194,2166.2,True,0.738,0.935,True
DEV-55688,2026-06-10 11:11:13.000,Chennai-Vellore,12.91°N,79.13°E,0.0773,-0.0029,9.8534,-0.0049,0.0041,-0.0375,0.0887,0,False,0.0506,0.0,False
DEV-57371,2026-06-11 17:34:49.000,Jaipur-Ajmer,26.45°N,74.64°E,-0.0718,-0.1643,9.9268,-0.0145,0.0003,0.004,0.214,78.3,False,0.0579,0.0,False
DEV-96848,2026-06-12 07:15:20.000,Vadodara-Surat,22.30°N,73.10°E,-0.0714,-0.0739,9.6938,0.0083,-0.0007,0.0204,0.1551,29.2,False,0.0705,0.0,False
DEV-34749,2026-06-10 06:53:54.000,Vadodara-Surat,22.30°N,73.10°E,-0.2061,-0.2109,9.725,0.0159,0.0197,-0.0106,0.3069,155.8,False,0.0726,0.0,False
DEV-21648,2026-06-10 18:04:29.000,Chennai-Vellore,12.91°N,79.13°E,-0.1266,0.2976,9.7673,-0.0165,-0.0073,0.0144,0.3262,171.8,False,0.0266,0.0,False
DEV-74451,2026-06-11 23:41:46.000,Mumbai-Pune,18.52°N,73.86°E,-0.0123,0.0817,9.8087,-0.031,0.0121,0.0004,0.0826,0,False,0.0201,0.0,False
DEV-73762,2026-06-10 11:05:08.000,Jaipur-Ajmer,26.45°N,74.64°E,-0.1072,0.0494,9.7648,0.0052,0.0042,0.0074,0.1264,5.3,False,0.0309,0.0,False
DEV-63581,2026-06-13 03:03:59.000,Vadodara-Surat,22.30°N,73.10°E,0.0378,-0.0707,9.8574,0.0046,0.0009,-0.0116,0.0931,0,False,0.0464,0.0,False
DEV-40773,2026-06-13 00:28:49.000,Kolkata-Asansol,23.68°N,86.98°E,-0.04,-0.037,9.8454,0.0053,0.0045,0.0014,0.065,0,False,0.0487,0.0,False
DEV-10951,2026-06-12 06:59:31.000,Vadodara-Surat,22.30°N,73.10°E,-0.4525,3.7194,9.0043,-0.6083,0.2327,0.0537,3.8325,3093.8,True,0.7317,0.952,True
DEV-57344,2026-06-11 01:21:27.000,Chennai-Vellore,12.91°N,79.13°E,-0.0826,0.1086,9.6943,0.0305,0.0369,-0.0001,0.1789,49.1,False,0.0599,0.0,False
DEV-28201,2026-06-11 09:33:24.000,Kolkata-Asansol,23.68°N,86.98°E,-0.996,1.0559,10.6139,0.2602,-0.1795,-0.457,1.6593,1282.8,True,0.4693,0.92,True
DEV-10410,2026-06-13 03:15:15.000,Jaipur-Ajmer,26.45°N,74.64°E,0.0015,0.1316,9.7469,-0.0372,-0.0293,-0.0021,0.146,21.7,False,0.0792,0.0,False
DEV-62450,2026-06-13 03:43:35.000,Mumbai-Pune,18.52°N,73.86°E,-0.3517,0.3533,10.0926,-0.332,-0.4492,0.1405,0.573,377.5,True,1.0044,0.974,True
DEV-78164,2026-06-13 02:22:55.000,Chennai-Vellore,12.91°N,79.13°E,0.2029,-0.2037,9.8034,-0.0166,0.0038,0.0078,0.2876,139.7,False,0.0726,0.0,False
DEV-32027,2026-06-12 15:09:06.000,Jaipur-Ajmer,26.45°N,74.64°E,0.1859,0.1542,9.7721,0.0284,-0.0389,-0.0092,0.2445,103.8,False,0.0738,0.0,False
DEV-13830,2026-06-13 03:32:40.000,Vadodara-Surat,22.30°N,73.10°E,-0.1084,-0.0227,9.9021,0.0422,-0.0029,-0.0067,0.144,20.0,False,0.0296,0.0,False
DEV-27793,2026-06-13 01:38:43.000,Mumbai-Pune,18.52°N,73.86°E,0.0108,-0.0842,9.8056,0.0227,0.0082,-0.0046,0.085,0,False,0.0754,0.0,False
DEV-54987,2026-06-12 04:08:00.000,Jaipur-Ajmer,26.45°N,74.64°E,0.0381,-0.1036,9.8272,0.0258,0.0065,-0.0025,0.1117,0,False,0.0426,0.0,False
DEV-25163,2026-06-12 10:14:33.000,Jaipur-Ajmer,26.45°N,74.64°E,-0.1583,0.1165,9.6642,-0.0149,0.0051,-0.01,0.2447,103.9,False,0.0375,0.0,False
DEV-59832,2026-06-10 14:06:38.000,Vadodara-Surat,22.30°N,73.10°E,-0.081,-0.0424,9.9075,-0.0093,0.0121,0.0093,0.1337,11.4,False,0.0546,0.0,False
DEV-26555,2026-06-10 06:07:20.000,Mumbai-Pune,18.52°N,73.86°E,-0.2835,-0.0516,9.8797,-0.0022,-0.02,0.017,0.2965,147.1,False,0.0512,0.0,False
DEV-75514,2026-06-12 01:48:30.000,Kolkata-Asansol,23.68°N,86.98°E,-0.1476,0.0912,9.7666,0.0027,0.0357,-0.01,0.1788,49.0,False,0.0608,0.0,False
DEV-26182,2026-06-10 16:44:06.000,Kolkata-Asansol,23.68°N,86.98°E,-0.0054,-0.2333,9.8199,-0.0047,-0.0101,0.016,0.2336,94.7,False,0.0364,0.0,False
DEV-30014,2026-06-12 19:43:31.000,Jaipur-Ajmer,26.45°N,74.64°E,-0.0711,-0.0614,9.7563,0.0504,0.034,0.0099,0.1082,0,False,0.0697,0.0,False
DEV-49203,2026-06-10 21:20:10.000,Jaipur-Ajmer,26.45°N,74.64°E,0.0382,0.1934,9.9326,-0.0161,0.02,-0.0189,0.2321,93.4,False,0.0791,0.0,False
DEV-79185,2026-06-12 06:00:18.000,Delhi-Agra,27.18°N,78.01°E,-0.13,-0.0323,9.7034,-0.0548,0.001,-0.0149,0.1712,42.7,False,0.0636,0.0,False
DEV-17094,2026-06-11 02:33:40.000,Jaipur-Ajmer,26.45°N,74.64°E,-0.0572,-0.1441,9.8679,0.0101,0.0103,-0.0291,0.1655,37.9,False,0.071,0.0,False
DEV-35644,2026-06-12 09:40:14.000,Mumbai-Pune,18.52°N,73.86°E,0.0421,0.0559,9.7879,-0.0156,0.0086,0.0083,0.0734,0,False,0.0641,0.0,False
DEV-32049,2026-06-10 06:39:54.000,Mumbai-Pune,18.52°N,73.86°E,-0.2009,-0.0827,9.8551,-0.0008,0.0201,-0.0049,0.2219,84.9,False,0.0756,0.0,False
DEV-92178,2026-06-10 12:59:38.000,Mumbai-Pune,18.52°N,73.86°E,0.0211,0.0356,9.925,-0.0036,-0.044,-0.022,0.1222,1.8,False,0.0634,0.0,False
DEV-97914,2026-06-10 23:50:25.000,Vadodara-Surat,22.30°N,73.10°E,-0.1014,0.0616,9.7695,-0.007,-0.001,-0.0259,0.1254,4.5,False,0.0595,0.0,False
DEV-74122,2026-06-12 14:37:57.000,Chennai-Vellore,12.91°N,79.13°E,-0.0706,-0.078,9.7663,-0.0157,0.0061,0.0043,0.1139,0,False,0.0585,0.0,False
DEV-60326,2026-06-13 00:09:12.000,Kolkata-Asansol,23.68°N,86.98°E,-0.379,-0.1841,9.688,0.004,0.0222,0.0113,0.4387,265.6,False,0.0491,0.0,False
DEV-12588,2026-06-12 04:56:17.000,Jaipur-Ajmer,26.45°N,74.64°E,-0.0619,-0.0238,9.9714,0.017,0.0036,-0.0092,0.1745,45.4,False,0.0436,0.0,False
DEV-37192,2026-06-12 17:31:32.000,Kolkata-Asansol,23.68°N,86.98°E,-0.0536,-0.0082,9.8618,-0.0213,0.0122,-0.0198,0.075,0,False,0.0779,0.0,False
DEV-37030,2026-06-12 23:21:41.000,Vadodara-Surat,22.30°N,73.10°E,-0.0767,-0.0441,9.6748,-0.0121,0.0075,0.0055,0.1616,34.7,False,0.0592,0.0,False
DEV-96266,2026-06-10 12:23:41.000,Kolkata-Asansol,23.68°N,86.98°E,0.0012,-0.0504,9.8577,0.0119,0.012,-0.0019,0.0694,0,False,0.02,0.0,False
DEV-78506,2026-06-11 03:53:20.000,Vadodara-Surat,22.30°N,73.10°E,-0.2602,-0.0256,9.7631,-0.0183,-0.0273,-0.0108,0.2656,121.3,False,0.0746,0.0,False
DEV-38208,2026-06-11 07:38:25.000,Kolkata-Asansol,23.68°N,86.98°E,0.0171,0.0531,9.835,-0.0133,0.0064,0.0117,0.0611,0,False,0.0774,0.0,False
DEV-31406,2026-06-12 01:50:48.000,Kolkata-Asansol,23.68°N,86.98°E,-0.0498,0.0487,9.7874,-0.0055,-0.0006,0.0147,0.0732,0,False,0.044,0.0,False
DEV-94616,2026-06-10 12:03:44.000,Mumbai-Pune,18.52°N,73.86°E,0.0776,-0.0245,9.8423,0.027,-0.0034,0.0211,0.0876,0,False,0.0316,0.0,False
DEV-13396,2026-06-11 09:05:54.000,Kolkata-Asansol,23.68°N,86.98°E,0.0876,-0.1478,9.7696,0.0056,0.0213,-0.0008,0.1765,47.1,False,0.0778,0.0,False
DEV-45815,2026-06-11 00:01:20.000,Vadodara-Surat,22.30°N,73.10°E,-0.2232,-0.0358,9.7504,0.0099,0.0371,0.0174,0.2338,94.8,False,0.0288,0.0,False
DEV-79006,2026-06-12 16:06:56.000,Delhi-Agra,27.18°N,78.01°E,0.3415,0.1931,9.8442,0.0485,0.0021,-0.0075,0.3938,228.2,False,0.0637,0.0,False
DEV-16286,2026-06-11 04:19:20.000,Kolkata-Asansol,23.68°N,86.98°E,-0.1837,0.0096,9.7609,-0.0381,-0.0259,-0.0065,0.1904,58.7,False,0.0302,0.0,False
DEV-87635,2026-06-13 02:55:21.000,Chennai-Vellore,12.91°N,79.13°E,0.0779,-0.1695,9.8344,-0.0246,0.015,-0.0103,0.1881,56.7,False,0.0277,0.0,False
DEV-58516,2026-06-10 06:41:29.000,Jaipur-Ajmer,26.45°N,74.64°E,0.0436,0.0517,9.7156,0.0225,0.0304,0.0079,0.1161,0,False,0.0625,0.0,False
DEV-66068,2026-06-11 00:08:23.000,Jaipur-Ajmer,26.45°N,74.64°E,-0.0256,-0.0735,9.9527,-0.0031,-0.0161,-0.0002,0.1625,35.4,False,0.0512,0.0,False
DEV-41462,2026-06-12 10:19:01.000,Delhi-Agra,27.18°N,78.01°E,0.2284,-0.2268,9.7523,0.0096,0.0069,0.0033,0.327,172.5,False,0.0767,0.0,False
DEV-76674,2026-06-10 18:01:23.000,Kolkata-Asansol,23.68°N,86.98°E,-0.0947,-1.905,7.9787,0.0366,0.3573,-0.0742,2.6442,2103.5,True,1.1493,0.921,True
DEV-80035,2026-06-12 07:53:20.000,Jaipur-Ajmer,26.45°N,74.64°E,-0.0492,-0.1159,9.679,-0.0294,-0.0008,-0.0237,0.1817,51.4,False,0.065,0.0,False
DEV-32089,2026-06-10 23:47:02.000,Jaipur-Ajmer,26.45°N,74.64°E,0.4958,-0.2166,9.9243,-0.0103,0.0211,0.0043,0.553,360.8,False,0.0605,0.0,False
DEV-32345,2026-06-12 22:13:12.000,Kolkata-Asansol,23.68°N,86.98°E,0.0653,0.1022,9.86,0.0139,0.0222,0.0055,0.1312,9.3,False,0.0424,0.0,False
DEV-37926,2026-06-10 14:14:43.000,Mumbai-Pune,18.52°N,73.86°E,0.0003,0.1494,9.8141,-0.01,-0.0051,0.0119,0.1495,24.6,False,0.0201,0.0,False
DEV-90969,2026-06-12 03:57:39.000,Kolkata-Asansol,23.68°N,86.98°E,0.3056,-0.1283,9.9032,-0.0061,0.0367,-0.0218,0.3443,186.9,False,0.0709,0.0,False
DEV-11161,2026-06-10 10:11:12.000,Mumbai-Pune,18.52°N,73.86°E,-1.4685,0.3113,10.4627,0.2314,-0.0612,-0.2997,1.6369,1264.1,True,0.526,0.949,False
DEV-57775,2026-06-11 19:27:05.000,Delhi-Agra,27.18°N,78.01°E,0.0151,-0.0073,9.8174,-0.0151,-0.019,0.0027,0.0183,0,False,0.0457,0.0,False
DEV-57085,2026-06-10 19:15:57.000,Kolkata-Asansol,23.68°N,86.98°E,0.125,0.0814,9.8353,-0.0101,-0.0129,0.0127,0.1513,26.1,False,0.073,0.0,False
DEV-72822,2026-06-12 09:38:37.000,Delhi-Agra,27.18°N,78.01°E,-0.0175,0.0627,9.7469,0.0085,0.029,0.0044,0.0907,0,False,0.0776,0.0,False
DEV-62412,2026-06-13 05:34:28.000,Mumbai-Pune,18.52°N,73.86°E,-0.1751,0.0096,9.7926,-0.0095,0.0002,-0.0261,0.1762,46.8,False,0.0501,0.0,False
DEV-99710,2026-06-13 01:15:06.000,Jaipur-Ajmer,26.45°N,74.64°E,-0.0554,0.0372,9.8229,0.0026,0.0132,0.0146,0.068,0,False,0.0342,0.0,False
DEV-90951,2026-06-12 07:23:34.000,Mumbai-Pune,18.52°N,73.86°E,-0.0156,-0.0087,9.7454,0.002,0.0184,0.0079,0.067,0,False,0.0291,0.0,False
DEV-23508,2026-06-11 19:13:38.000,Delhi-Agra,27.18°N,78.01°E,0.0314,-0.2385,9.8703,-0.0005,0.0057,-0.009,0.248,106.7,False,0.0621,0.0,False
DEV-35189,2026-06-11 18:34:43.000,Kolkata-Asansol,23.68°N,86.98°E,0.2004,-0.0075,9.7717,-0.0108,0.0038,0.0031,0.2042,70.2,False,0.0757,0.0,False
DEV-54063,2026-06-11 13:02:32.000,Vadodara-Surat,22.30°N,73.10°E,0.0408,0.021,9.7528,0.0094,-0.0097,-0.0081,0.0733,0,False,0.0456,0.0,False
DEV-16233,2026-06-10 10:28:02.000,Kolkata-Asansol,23.68°N,86.98°E,0.0687,0.0185,9.6847,0.0362,-0.0036,-0.011,0.1441,20.1,False,0.0309,0.0,False
DEV-74393,2026-06-10 06:02:20.000,Vadodara-Surat,22.30°N,73.10°E,-0.0535,0.0886,9.7894,0.0268,-0.0138,0.0048,0.1055,0,False,0.0418,0.0,False
DEV-87189,2026-06-11 04:09:45.000,Vadodara-Surat,22.30°N,73.10°E,0.1893,0.013,9.8564,-0.0137,-0.001,-0.0142,0.1953,62.8,False,0.0517,0.0,False
DEV-86881,2026-06-11 09:03:30.000,Delhi-Agra,27.18°N,78.01°E,0.0367,0.1144,9.8421,-0.0069,-0.0005,-0.0076,0.1244,3.7,False,0.0781,0.0,False
DEV-72154,2026-06-12 22:22:26.000,Jaipur-Ajmer,26.45°N,74.64°E,0.0572,0.1221,9.9653,0.0277,-0.0124,-0.0086,0.2057,71.4,False,0.0794,0.0,False
DEV-83445,2026-06-10 20:42:32.000,Kolkata-Asansol,23.68°N,86.98°E,0.0942,0.0213,9.752,-0.0048,0.0281,-0.0205,0.1127,0,False,0.0785,0.0,False
DEV-12867,2026-06-12 23:09:56.000,Mumbai-Pune,18.52°N,73.86°E,-0.0672,-0.2583,9.8859,0.0086,0.0215,-0.0074,0.2775,131.3,False,0.03,0.0,False
DEV-74884,2026-06-11 01:57:46.000,Jaipur-Ajmer,26.45°N,74.64°E,-0.0924,0.2905,10.009,0.02,0.0135,0.0256,0.364,203.3,False,0.0611,0.0,False
DEV-34125,2026-06-12 21:22:12.000,Kolkata-Asansol,23.68°N,86.98°E,0.1266,0.1725,9.7062,0.0231,-0.0129,0.007,0.2378,98.2,False,0.0202,0.0,False
DEV-38879,2026-06-11 23:38:39.000,Delhi-Agra,27.18°N,78.01°E,0.3441,0.0153,9.7156,-0.0019,-0.0028,-0.0114,0.3571,197.6,False,0.0378,0.0,False
DEV-27428,2026-06-11 01:33:09.000,Kolkata-Asansol,23.68°N,86.98°E,0.0302,0.1462,9.7803,0.0276,0.0151,-0.0043,0.1522,26.8,False,0.0362,0.0,False
DEV-58380,2026-06-12 15:34:16.000,Vadodara-Surat,22.30°N,73.10°E,0.0017,0.2235,9.8059,-0.0002,-0.0157,0.0167,0.2235,86.2,False,0.0395,0.0,False
DEV-11364,2026-06-13 02:55:00.000,Jaipur-Ajmer,26.45°N,74.64°E,-0.0071,0.064,9.8637,-0.01,0.0279,-0.0019,0.0838,0,False,0.0694,0.0,False
DEV-23951,2026-06-10 21:58:02.000,Jaipur-Ajmer,26.45°N,74.64°E,0.1778,0.2869,9.5941,-0.0129,0.0061,-0.0257,0.4007,233.9,False,0.0634,0.0,False
DEV-36728,2026-06-12 08:06:25.000,Chennai-Vellore,12.91°N,79.13°E,-0.0097,0.1682,9.7669,-0.0083,-0.0166,0.0047,0.1739,44.9,False,0.0549,0.0,False
DEV-34251,2026-06-12 16:49:02.000,Chennai-Vellore,12.91°N,79.13°E,0.0277,0.1919,9.693,0.0317,0.0105,0.0053,0.2265,88.8,False,0.0689,0.0,False
DEV-89668,2026-06-10 18:49:26.000,Delhi-Agra,27.18°N,78.01°E,0.0887,-0.0264,9.7962,0.0169,0.0277,-0.0183,0.0936,0,False,0.0313,0.0,False
DEV-11545,2026-06-10 16:27:03.000,Vadodara-Surat,22.30°N,73.10°E,-0.2073,0.0482,9.7049,0.0185,0.0217,0.019,0.2374,97.8,False,0.0562,0.0,False
DEV-28695,2026-06-11 09:30:57.000,Chennai-Vellore,12.91°N,79.13°E,1.4142,-2.2579,9.6443,-0.0943,0.0015,0.1253,2.6694,2124.5,True,1.1539,0.958,True
DEV-31383,2026-06-10 06:41:03.000,Vadodara-Surat,22.30°N,73.10°E,0.1221,-0.2136,9.8477,0.0056,0.0026,-0.0316,0.2489,107.4,False,0.0384,0.0,False
DEV-23443,2026-06-11 16:52:22.000,Delhi-Agra,27.18°N,78.01°E,-0.1139,-0.0256,9.7941,-0.0011,0.0241,0.0052,0.1178,0,False,0.0507,0.0,False
DEV-99707,2026-06-12 18:54:39.000,Chennai-Vellore,12.91°N,79.13°E,0.0282,-0.0139,9.7695,0.005,-0.008,-0.0089,0.0513,0,False,0.0431,0.0,False
DEV-90700,2026-06-12 22:23:13.000,Jaipur-Ajmer,26.45°N,74.64°E,0.0696,0.0475,9.8385,0.0059,0.0181,-0.0039,0.089,0,False,0.04,0.0,False
DEV-97460,2026-06-11 08:15:01.000,Vadodara-Surat,22.30°N,73.10°E,-0.0744,-0.0459,9.7037,-0.0052,-0.0049,-0.0077,0.1376,14.7,False,0.0612,0.0,False
DEV-20009,2026-06-12 03:29:36.000,Mumbai-Pune,18.52°N,73.86°E,0.2653,0.1624,9.7121,-0.0395,0.0117,-0.0219,0.3261,171.8,False,0.0673,0.0,False
DEV-24832,2026-06-12 20:44:53.000,Delhi-Agra,27.18°N,78.01°E,0.0513,0.054,9.6751,0.0117,0.0363,-0.0041,0.1541,28.4,False,0.0547,0.0,False
DEV-64256,2026-06-13 03:52:29.000,Jaipur-Ajmer,26.45°N,74.64°E,0.4098,0.2093,9.8427,0.0179,-0.0089,0.0143,0.4613,284.4,False,0.0561,0.0,False
DEV-80282,2026-06-12 04:21:21.000,Mumbai-Pune,18.52°N,73.86°E,0.3178,-0.0933,9.735,0.0169,-0.0226,-0.0042,0.3396,183.0,False,0.0693,0.0,False
DEV-10375,2026-06-11 10:00:27.000,Vadodara-Surat,22.30°N,73.10°E,-0.1737,0.0743,9.7638,-0.0311,-0.0043,-0.0105,0.1945,62.1,False,0.0322,0.0,False
DEV-28264,2026-06-12 19:56:18.000,Vadodara-Surat,22.30°N,73.10°E,-0.0793,0.0105,9.9456,0.0281,-0.025,0.0224,0.1574,31.2,False,0.0377,0.0,False
DEV-28753,2026-06-10 16:29:45.000,Kolkata-Asansol,23.68°N,86.98°E,0.0955,-0.0465,9.8227,-0.006,0.0332,0.0292,0.107,0,False,0.0426,0.0,False
DEV-13956,2026-06-10 07:55:06.000,Jaipur-Ajmer,26.45°N,74.64°E,-0.1614,0.1346,9.7937,-0.0067,0.0211,-0.0259,0.2108,75.7,False,0.0288,0.0,False
DEV-79133,2026-06-10 16:17:15.000,Vadodara-Surat,22.30°N,73.10°E,0.282,0.0177,9.6921,0.0171,-0.0108,0.0016,0.3062,155.2,False,0.0619,0.0,False
DEV-14209,2026-06-11 03:48:34.000,Chennai-Vellore,12.91°N,79.13°E,-0.1364,0.1785,9.7878,-0.0155,0.023,0.0257,0.2257,88.1,False,0.0563,0.0,False
DEV-84981,2026-06-10 18:38:23.000,Kolkata-Asansol,23.68°N,86.98°E,-0.1253,0.0763,9.8934,-0.007,-0.0037,-0.0113,0.1688,40.7,False,0.0501,0.0,False
DEV-91139,2026-06-12 09:39:12.000,Delhi-Agra,27.18°N,78.01°E,0.223,0.269,9.5911,-0.0074,0.0098,0.0073,0.4123,243.6,False,0.0234,0.0,False
DEV-63097,2026-06-11 10:33:56.000,Delhi-Agra,27.18°N,78.01°E,0.2021,-0.0246,9.9187,0.0143,-0.0288,0.0031,0.2308,92.3,False,0.0696,0.0,False
DEV-13676,2026-06-10 18:00:07.000,Vadodara-Surat,22.30°N,73.10°E,-0.0597,-0.0629,9.835,0.0051,-0.0309,-0.0175,0.0903,0,False,0.0344,0.0,False
DEV-41501,2026-06-10 17:51:06.000,Kolkata-Asansol,23.68°N,86.98°E,0.0053,0.0173,9.8535,-0.0069,0.0137,0.0329,0.0471,0,False,0.0362,0.0,False
DEV-56746,2026-06-13 05:07:06.000,Kolkata-Asansol,23.68°N,86.98°E,-0.2441,-0.0827,9.8767,0.0049,0.0024,-0.0007,0.2662,121.8,False,0.0651,0.0,False
DEV-76005,2026-06-13 03:48:47.000,Chennai-Vellore,12.91°N,79.13°E,-0.0588,0.1098,9.784,0.0083,-0.0082,-0.012,0.1272,6.0,False,0.0261,0.0,False
DEV-20322,2026-06-12 16:47:59.000,Delhi-Agra,27.18°N,78.01°E,0.5849,-1.6367,9.9788,-0.0811,0.2806,0.3855,1.7462,1355.2,True,1.1139,0.917,True
DEV-95379,2026-06-12 22:24:00.000,Delhi-Agra,27.18°N,78.01°E,-0.1453,-0.1693,9.9192,0.0437,-0.0321,-0.0025,0.2484,107.0,False,0.0514,0.0,False
DEV-99505,2026-06-12 13:58:13.000,Mumbai-Pune,18.52°N,73.86°E,0.0844,0.073,9.6745,-0.0332,0.0306,0.0059,0.1755,46.2,False,0.0433,0.0,False
DEV-50572,2026-06-10 21:12:21.000,Kolkata-Asansol,23.68°N,86.98°E,0.1873,-0.0405,9.8462,-0.0003,0.034,0.0024,0.195,62.5,False,0.0528,0.0,False
DEV-19323,2026-06-13 04:33:23.000,Vadodara-Surat,22.30°N,73.10°E,-0.0878,0.0205,9.8015,0.0072,-0.0166,-0.0065,0.0906,0,False,0.0308,0.0,False
DEV-84545,2026-06-12 14:12:39.000,Chennai-Vellore,12.91°N,79.13°E,-0.1137,0.0154,9.8929,-0.0203,0.0065,0.006,0.1416,18.0,False,0.0493,0.0,False
DEV-58979,2026-06-11 08:28:02.000,Mumbai-Pune,18.52°N,73.86°E,0.2085,-0.2095,9.8627,0.0139,0.0277,-0.0306,0.3002,150.2,False,0.025,0.0,False
DEV-83505,2026-06-11 12:05:16.000,Kolkata-Asansol,23.68°N,86.98°E,0.3314,-0.2572,10.0224,0.0146,0.0331,0.0093,0.4702,291.8,False,0.0205,0.0,False
DEV-71063,2026-06-12 20:07:04.000,Vadodara-Surat,22.30°N,73.10°E,0.0826,0.1016,9.8811,0.0088,-0.0086,0.0016,0.149,24.2,False,0.0481,0.0,False
DEV-18450,2026-06-11 20:57:57.000,Chennai-Vellore,12.91°N,79.13°E,0.0305,0.052,9.8879,-0.0051,-0.0185,0.0062,0.0985,0,False,0.039,0.0,False
DEV-37979,2026-06-12 02:00:31.000,Chennai-Vellore,12.91°N,79.13°E,-0.004,-0.059,9.7137,0.0071,0.0106,-0.0027,0.113,0,False,0.0392,0.0,False
DEV-13007,2026-06-10 08:16:51.000,Kolkata-Asansol,23.68°N,86.98°E,0.252,0.0834,9.8646,-0.0537,0.0031,0.0101,0.271,125.8,False,0.0772,0.0,False
DEV-65013,2026-06-12 07:47:00.000,Chennai-Vellore,12.91°N,79.13°E,-0.0412,-0.0378,9.8839,0.0086,-0.0094,0.0226,0.0927,0,False,0.0515,0.0,False
DEV-64932,2026-06-12 06:45:43.000,Mumbai-Pune,18.52°N,73.86°E,0.3005,0.0844,9.6247,0.0223,-0.0039,0.0096,0.363,202.5,False,0.0489,0.0,False
DEV-88266,2026-06-11 20:59:39.000,Jaipur-Ajmer,26.45°N,74.64°E,0.157,-0.0276,9.8987,-0.0136,0.0114,-0.0173,0.1824,52.0,False,0.0319,0.0,False
DEV-11859,2026-06-12 10:37:37.000,Jaipur-Ajmer,26.45°N,74.64°E,0.1362,0.1398,9.868,-0.0292,0.0148,-0.0217,0.2036,69.7,False,0.029,0.0,False
DEV-26478,2026-06-11 15:23:54.000,Delhi-Agra,27.18°N,78.01°E,-0.1077,0.1944,9.7813,-0.0139,-0.0103,-0.044,0.2241,86.8,False,0.0581,0.0,False
DEV-55624,2026-06-12 04:31:28.000,Kolkata-Asansol,23.68°N,86.98°E,0.0817,0.3272,9.7218,0.0121,0.0098,0.0126,0.3486,190.5,False,0.0326,0.0,False
DEV-75422,2026-06-10 19:55:11.000,Jaipur-Ajmer,26.45°N,74.64°E,0.2739,0.0198,9.9796,0.0043,-0.0402,-0.0004,0.3228,169.0,False,0.0589,0.0,False
DEV-66149,2026-06-11 15:12:17.000,Chennai-Vellore,12.91°N,79.13°E,-0.1124,0.1202,9.6753,-0.0049,0.0094,0.0061,0.2127,77.2,False,0.0424,0.0,False
DEV-23005,2026-06-11 22:15:01.000,Kolkata-Asansol,23.68°N,86.98°E,-0.113,0.0385,9.745,-0.0255,-0.0207,-0.0174,0.1359,13.3,False,0.0797,0.0,False
DEV-93037,2026-06-12 16:41:12.000,Vadodara-Surat,22.30°N,73.10°E,0.3464,0.0287,9.9159,0.0202,-0.0179,-0.0132,0.3634,202.8,False,0.0466,0.0,False
DEV-26310,2026-06-12 00:19:26.000,Vadodara-Surat,22.30°N,73.10°E,0.0617,-0.0665,9.827,-0.025,0.0296,0.0195,0.0923,0,False,0.041,0.0,False
DEV-47172,2026-06-12 15:47:57.000,Chennai-Vellore,12.91°N,79.13°E,0.1002,-0.1692,9.8095,-0.0025,-0.01,0.0076,0.1966,63.8,False,0.0361,0.0,False
DEV-13440,2026-06-12 05:57:49.000,Mumbai-Pune,18.52°N,73.86°E,0.2691,-0.151,9.8066,-0.0016,0.0043,-0.0021,0.3086,157.2,False,0.0292,0.0,False
DEV-35252,2026-06-11 09:15:48.000,Kolkata-Asansol,23.68°N,86.98°E,-0.1097,-0.0637,10.0532,-0.016,0.0028,0.0404,0.2743,128.6,False,0.057,0.0,False
DEV-77800,2026-06-11 10:38:25.000,Vadodara-Surat,22.30°N,73.10°E,-0.0696,-0.0296,9.6657,-0.0416,0.02,0.0288,0.1629,35.7,False,0.0295,0.0,False
DEV-82470,2026-06-10 22:49:07.000,Vadodara-Surat,22.30°N,73.10°E,0.0528,0.0429,9.7393,-0.0093,0.0034,-0.0333,0.0981,0,False,0.0295,0.0,False
DEV-20324,2026-06-11 05:28:36.000,Delhi-Agra,27.18°N,78.01°E,0.0226,0.0029,9.8158,-0.0114,-0.0185,-0.0127,0.0235,0,False,0.0543,0.0,False
DEV-35405,2026-06-10 07:50:29.000,Jaipur-Ajmer,26.45°N,74.64°E,0.2117,-0.0177,9.8189,-0.0127,-0.0081,-0.0087,0.2126,77.2,False,0.0521,0.0,False
DEV-93674,2026-06-10 23:51:31.000,Jaipur-Ajmer,26.45°N,74.64°E,0.0578,-0.2006,9.7754,-0.0135,0.0258,-0.0084,0.2116,76.3,False,0.0791,0.0,False
DEV-57369,2026-06-12 21:07:42.000,Vadodara-Surat,22.30°N,73.10°E,0.0689,-0.0271,9.8492,0.0121,0.0034,0.0055,0.0838,0,False,0.0748,0.0,False
DEV-51102,2026-06-10 21:08:38.000,Chennai-Vellore,12.91°N,79.13°E,0.0437,-0.119,9.6983,0.0024,0.0052,0.0152,0.169,40.8,False,0.058,0.0,False
DEV-55453,2026-06-11 14:49:55.000,Delhi-Agra,27.18°N,78.01°E,0.0939,0.0048,9.7103,-0.0112,0.0535,0.008,0.137,14.2,False,0.049,0.0,False
DEV-77075,2026-06-12 02:42:37.000,Kolkata-Asansol,23.68°N,86.98°E,0.1343,0.1656,9.8569,-0.0058,0.0042,0.0006,0.2183,81.9,False,0.0657,0.0,False
DEV-73120,2026-06-10 21:45:03.000,Mumbai-Pune,18.52°N,73.86°E,0.0275,0.1046,9.8344,0.0317,0.0147,-0.0044,0.1109,0,False,0.032,0.0,False
DEV-42780,2026-06-10 12:41:49.000,Mumbai-Pune,18.52°N,73.86°E,-0.0973,-0.1099,9.841,-0.02,0.0427,-0.0112,0.15,25.0,False,0.0304,0.0,False
DEV-73941,2026-06-12 08:01:47.000,Jaipur-Ajmer,26.45°N,74.64°E,-0.1552,0.0991,9.8171,-0.0172,0.0136,-0.0358,0.1843,53.6,False,0.046,0.0,False
DEV-92929,2026-06-11 14:29:17.000,Chennai-Vellore,12.91°N,79.13°E,-0.0178,0.1042,9.8713,0.0123,0.0058,0.0133,0.1222,1.8,False,0.0692,0.0,False
DEV-79533,2026-06-11 14:43:28.000,Delhi-Agra,27.18°N,78.01°E,0.1106,-0.0239,9.7181,0.0146,0.0351,-0.0256,0.1458,21.5,False,0.0411,0.0,False
DEV-51215,2026-06-10 08:10:48.000,Vadodara-Surat,22.30°N,73.10°E,-0.117,0.1905,9.7905,0.0061,-0.0106,-0.0121,0.2244,87.0,False,0.0273,0.0,False
DEV-88879,2026-06-11 05:11:56.000,Jaipur-Ajmer,26.45°N,74.64°E,-0.9579,1.4767,10.3502,-0.8217,-0.3199,-0.1118,1.8412,1434.3,True,0.6091,0.927,True
DEV-51958,2026-06-12 10:09:24.000,Kolkata-Asansol,23.68°N,86.98°E,0.079,-0.1675,9.7069,-0.0129,-0.0088,-0.0146,0.212,76.7,False,0.0319,0.0,False
DEV-85551,2026-06-10 09:36:58.000,Chennai-Vellore,12.91°N,79.13°E,0.1566,-0.0077,9.8449,0.0086,-0.0091,0.0131,0.1606,33.8,False,0.0213,0.0,False
DEV-79922,2026-06-10 07:17:55.000,Jaipur-Ajmer,26.45°N,74.64°E,-0.0129,-0.0053,9.7688,0.0025,0.0054,-0.0009,0.0435,0,False,0.0751,0.0,False
DEV-62473,2026-06-10 08:50:55.000,Mumbai-Pune,18.52°N,73.86°E,0.0608,0.0227,9.8515,-0.0303,-0.0052,0.0248,0.077,0,False,0.0248,0.0,False
DEV-59008,2026-06-12 14:24:20.000,Mumbai-Pune,18.52°N,73.86°E,0.1208,0.0294,9.9028,-0.0023,-0.0278,-0.0255,0.1551,29.2,False,0.0763,0.0,False
DEV-21536,2026-06-10 13:28:53.000,Vadodara-Surat,22.30°N,73.10°E,0.0374,-0.0584,9.9689,-0.0016,-0.0023,-0.0106,0.1734,44.5,False,0.0315,0.0,False
DEV-16291,2026-06-12 23:42:06.000,Mumbai-Pune,18.52°N,73.86°E,-0.0145,-0.0028,9.8001,-0.0061,0.0044,-0.003,0.0178,0,False,0.0768,0.0,False
DEV-26552,2026-06-10 11:27:51.000,Mumbai-Pune,18.52°N,73.86°E,-0.2084,-0.1429,9.8039,0.0121,0.0144,0.0127,0.2528,110.7,False,0.0392,0.0,False
DEV-96673,2026-06-10 16:46:37.000,Kolkata-Asansol,23.68°N,86.98°E,0.1513,-0.0264,9.7714,0.0034,-0.0259,-0.0034,0.1584,32.0,False,0.0494,0.0,False
DEV-41768,2026-06-11 02:25:42.000,Mumbai-Pune,18.52°N,73.86°E,-0.0654,0.0057,9.8228,-0.0314,-0.0229,0.0227,0.0669,0,False,0.0596,0.0,False
DEV-73916,2026-06-12 11:32:26.000,Delhi-Agra,27.18°N,78.01°E,0.1561,0.0638,9.8378,0.029,-0.0193,0.0029,0.1709,42.4,False,0.0263,0.0,False
DEV-23849,2026-06-10 21:11:39.000,Kolkata-Asansol,23.68°N,86.98°E,-0.1296,-0.0091,9.928,-0.0108,-0.0218,-0.0241,0.1755,46.2,False,0.0748,0.0,False
DEV-99950,2026-06-10 21:55:53.000,Mumbai-Pune,18.52°N,73.86°E,-0.1995,0.0492,9.8335,0.0193,0.0191,0.0066,0.2068,72.3,False,0.0384,0.0,False
DEV-13746,2026-06-12 21:20:21.000,Kolkata-Asansol,23.68°N,86.98°E,0.1844,0.196,9.8081,-0.0148,0.0101,-0.006,0.2691,124.3,False,0.0486,0.0,False
DEV-53743,2026-06-11 20:39:28.000,Chennai-Vellore,12.91°N,79.13°E,0.1396,0.1027,9.7763,0.0109,-0.0169,0.0096,0.1766,47.2,False,0.0232,0.0,False
DEV-79410,2026-06-11 01:50:57.000,Mumbai-Pune,18.52°N,73.86°E,-0.1448,-0.1565,9.751,0.0078,-0.022,0.0116,0.2212,84.3,False,0.0564,0.0,False
DEV-41295,2026-06-11 19:45:52.000,Chennai-Vellore,12.91°N,79.13°E,0.108,0.028,9.8403,0.0064,0.0207,-0.012,0.1156,0,False,0.024,0.0,False
DEV-45162,2026-06-10 13:21:24.000,Mumbai-Pune,18.52°N,73.86°E,-0.1732,-0.1305,9.7812,0.0058,-0.0041,-0.0307,0.2188,82.3,False,0.0497,0.0,False
DEV-72489,2026-06-10 18:27:14.000,Delhi-Agra,27.18°N,78.01°E,-0.0478,0.157,9.8064,-0.0089,-0.031,-0.0005,0.1642,36.8,False,0.0643,0.0,False
DEV-72206,2026-06-12 20:04:54.000,Jaipur-Ajmer,26.45°N,74.64°E,-0.0226,0.0418,9.8758,0.0396,0.002,0.0019,0.0812,0,False,0.0457,0.0,False
DEV-10131,2026-06-10 07:30:59.000,Delhi-Agra,27.18°N,78.01°E,0.0674,-0.0498,9.8107,-0.0028,-0.0136,0.0136,0.0838,0,False,0.0493,0.0,False
DEV-29212,2026-06-11 00:01:23.000,Chennai-Vellore,12.91°N,79.13°E,0.0815,-0.141,9.9617,-0.0023,-0.012,-0.0014,0.2226,85.5,False,0.0665,0.0,False
DEV-70129,2026-06-10 13:16:52.000,Mumbai-Pune,18.52°N,73.86°E,-0.0893,0.1197,9.7505,0.0203,-0.0079,-0.0098,0.1608,34.0,False,0.0208,0.0,False
DEV-99887,2026-06-11 07:40:38.000,Mumbai-Pune,18.52°N,73.86°E,0.2009,-0.1306,9.9174,-0.0337,-0.0081,-0.0042,0.2626,118.8,False,0.0512,0.0,False
DEV-66455,2026-06-12 04:35:19.000,Vadodara-Surat,22.30°N,73.10°E,-0.0895,0.0452,9.8852,-0.0007,0.0258,0.0038,0.1253,4.4,False,0.0416,0.0,False
DEV-68886,2026-06-12 12:12:10.000,Vadodara-Surat,22.30°N,73.10°E,0.2055,-0.048,9.97,-0.0088,-0.0185,-0.029,0.2648,120.7,False,0.0792,0.0,False
DEV-34978,2026-06-12 21:47:42.000,Kolkata-Asansol,23.68°N,86.98°E,0.1175,-0.0594,9.7579,0.0233,0.0151,-0.0041,0.1416,18.0,False,0.0225,0.0,False
DEV-11092,2026-06-11 19:52:15.000,Jaipur-Ajmer,26.45°N,74.64°E,-0.1217,-0.083,9.6083,0.0146,0.0043,-0.0119,0.2498,108.2,False,0.0499,0.0,False
DEV-48630,2026-06-12 07:55:06.000,Delhi-Agra,27.18°N,78.01°E,0.2295,0.2535,9.7258,-0.0207,-0.0055,0.0117,0.3522,193.5,False,0.0209,0.0,False
DEV-42955,2026-06-10 08:58:55.000,Delhi-Agra,27.18°N,78.01°E,-0.0414,-0.0219,9.7808,0.0199,-0.0004,-0.0005,0.0552,0,False,0.0283,0.0,False
DEV-35785,2026-06-12 21:59:11.000,Mumbai-Pune,18.52°N,73.86°E,-0.3784,-0.0038,9.626,-0.0185,-0.0025,-0.0081,0.4208,250.7,False,0.0459,0.0,False
DEV-22863,2026-06-13 00:51:56.000,Vadodara-Surat,22.30°N,73.10°E,0.3416,0.0559,9.811,0.0301,-0.0152,0.0099,0.3461,188.4,False,0.0736,0.0,False
DEV-42770,2026-06-13 01:00:23.000,Mumbai-Pune,18.52°N,73.86°E,0.0744,0.1138,9.9128,-0.0254,0.0219,0.0197,0.1705,42.1,False,0.0281,0.0,False
DEV-67264,2026-06-11 22:21:42.000,Delhi-Agra,27.18°N,78.01°E,0.1666,0.0795,9.7404,-0.0181,-0.0291,0.0215,0.1973,64.4,False,0.0258,0.0,False
DEV-70461,2026-06-11 20:20:37.000,Chennai-Vellore,12.91°N,79.13°E,-0.228,-0.0044,9.7632,0.0146,-0.0499,0.008,0.2328,94.0,False,0.0217,0.0,False
DEV-26682,2026-06-11 22:41:54.000,Vadodara-Surat,22.30°N,73.10°E,-0.2214,0.0961,9.7591,-0.0112,0.0011,0.018,0.2467,105.6,False,0.0573,0.0,False
DEV-77896,2026-06-12 23:31:46.000,Kolkata-Asansol,23.68°N,86.98°E,0.2735,0.0765,9.8937,0.0212,-0.033,0.0059,0.2961,146.7,False,0.0476,0.0,False
DEV-53425,2026-06-10 09:57:26.000,Vadodara-Surat,22.30°N,73.10°E,1.2548,-1.9051,9.6059,0.1567,-0.1012,0.3327,2.2903,1808.6,True,1.0982,0.92,True
DEV-93842,2026-06-11 19:11:48.000,Jaipur-Ajmer,26.45°N,74.64°E,-0.0542,-0.138,9.6165,-0.0199,0.0278,0.0241,0.2438,103.2,False,0.0711,0.0,False
DEV-89140,2026-06-11 03:54:37.000,Jaipur-Ajmer,26.45°N,74.64°E,0.017,-0.0009,9.6885,0.0029,0.0001,0.0001,0.1227,2.2,False,0.0728,0.0,False
DEV-73402,2026-06-11 19:51:08.000,Vadodara-Surat,22.30°N,73.10°E,0.0267,0.0162,9.7304,-0.0007,0.0151,-0.0057,0.0855,0,False,0.079,0.0,False
DEV-93387,2026-06-12 17:43:49.000,Delhi-Agra,27.18°N,78.01°E,-0.2666,-0.0645,9.7437,-0.036,-0.0158,-0.0107,0.2822,135.2,False,0.0213,0.0,False
DEV-87170,2026-06-10 16:19:02.000,Jaipur-Ajmer,26.45°N,74.64°E,0.1178,0.1735,9.7229,-0.0066,-0.0074,0.0216,0.2271,89.2,False,0.0496,0.0,False
DEV-83952,2026-06-12 06:37:13.000,Mumbai-Pune,18.52°N,73.86°E,-0.0231,-0.0541,9.7371,0.0105,0.0218,0.0029,0.0937,0,False,0.0434,0.0,False
DEV-70076,2026-06-12 00:16:24.000,Mumbai-Pune,18.52°N,73.86°E,-1.5425,-1.7791,7.9619,0.2987,-0.1172,0.13,2.9933,2394.4,True,0.6577,0.989,True
DEV-83812,2026-06-12 20:19:13.000,Kolkata-Asansol,23.68°N,86.98°E,0.1498,-0.0842,9.7606,-0.001,0.017,0.0178,0.1788,49.0,False,0.0404,0.0,False
DEV-71833,2026-06-12 10:04:40.000,Delhi-Agra,27.18°N,78.01°E,0.0101,-0.1016,9.67,0.0275,-0.0119,-0.0115,0.1733,44.4,False,0.0564,0.0,False
DEV-86610,2026-06-10 19:08:04.000,Kolkata-Asansol,23.68°N,86.98°E,-0.2198,-0.0077,9.8028,0.0309,-0.0224,-0.0105,0.2201,83.4,False,0.057,0.0,False
DEV-40347,2026-06-11 11:24:06.000,Vadodara-Surat,22.30°N,73.10°E,0.6339,-0.7079,10.1604,0.1081,0.3646,-0.137,1.0128,744.0,True,1.186,0.975,True
DEV-25004,2026-06-10 23:13:47.000,Vadodara-Surat,22.30°N,73.10°E,0.1456,0.2251,9.813,-0.0209,0.0253,0.0081,0.2681,123.4,False,0.0222,0.0,False
DEV-27460,2026-06-12 12:36:30.000,Vadodara-Surat,22.30°N,73.10°E,-0.1492,0.1204,9.8586,0.0023,0.017,0.0103,0.1978,64.8,False,0.0793,0.0,False
DEV-35204,2026-06-11 23:46:52.000,Kolkata-Asansol,23.68°N,86.98°E,-0.0025,0.1287,9.7979,0.0131,0.0192,0.0234,0.1293,7.8,False,0.0252,0.0,False
DEV-19432,2026-06-10 07:45:55.000,Jaipur-Ajmer,26.45°N,74.64°E,0.0321,0.0177,9.8152,0.0016,0.004,-0.0192,0.037,0,False,0.0404,0.0,False
DEV-56725,2026-06-12 07:41:16.000,Jaipur-Ajmer,26.45°N,74.64°E,-0.025,-0.1457,9.83,0.0127,0.011,-0.0156,0.1492,24.3,False,0.0571,0.0,False
DEV-23226,2026-06-11 22:40:59.000,Delhi-Agra,27.18°N,78.01°E,-0.1949,0.063,9.8829,-0.0185,0.0168,0.013,0.2174,81.2,False,0.0271,0.0,False
DEV-18906,2026-06-10 22:47:23.000,Vadodara-Surat,22.30°N,73.10°E,-0.052,0.0747,9.9784,-0.0165,-0.0003,0.0234,0.1914,59.5,False,0.0723,0.0,False
DEV-24532,2026-06-10 17:29:42.000,Mumbai-Pune,18.52°N,73.86°E,-0.2615,-0.1072,9.8957,-0.0098,-0.0055,0.003,0.2953,146.1,False,0.055,0.0,False
DEV-53202,2026-06-13 02:13:29.000,Mumbai-Pune,18.52°N,73.86°E,0.1537,0.0253,9.8612,0.0398,0.0126,0.0037,0.164,36.7,False,0.0755,0.0,False
DEV-19275,2026-06-12 06:18:09.000,Vadodara-Surat,22.30°N,73.10°E,0.3271,0.1291,9.9128,-0.0176,0.0005,-0.004,0.3664,205.3,False,0.077,0.0,False
DEV-76532,2026-06-12 01:33:20.000,Jaipur-Ajmer,26.45°N,74.64°E,0.1661,0.0737,9.87,-0.0052,0.0052,0.001,0.1914,59.5,False,0.0335,0.0,False
DEV-35712,2026-06-11 07:30:17.000,Chennai-Vellore,12.91°N,79.13°E,0.0604,-0.2406,9.8358,0.0458,0.0344,0.0043,0.2494,107.8,False,0.0521,0.0,False
DEV-65945,2026-06-12 20:38:41.000,Chennai-Vellore,12.91°N,79.13°E,-0.0144,-0.1517,9.939,0.011,-0.0071,-0.015,0.1997,66.4,False,0.053,0.0,False
DEV-22057,2026-06-10 14:24:59.000,Chennai-Vellore,12.91°N,79.13°E,-0.2425,-0.1724,9.7662,0.0147,0.0128,-0.0054,0.3007,150.6,False,0.0553,0.0,False
DEV-17455,2026-06-10 22:32:19.000,Chennai-Vellore,12.91°N,79.13°E,0.2034,-0.1375,9.5867,-0.0254,0.0318,0.0022,0.3319,176.6,False,0.0246,0.0,False
DEV-72744,2026-06-10 15:13:37.000,Chennai-Vellore,12.91°N,79.13°E,0.1339,0.0302,9.7764,-0.0124,-0.0072,0.0198,0.1413,17.8,False,0.0595,0.0,False
DEV-68135,2026-06-12 05:48:41.000,Vadodara-Surat,22.30°N,73.10°E,0.0943,-0.0308,9.7693,-0.0352,0.0317,-0.0178,0.1072,0,False,0.0628,0.0,False
DEV-17077,2026-06-13 02:33:09.000,Mumbai-Pune,18.52°N,73.86°E,-0.0579,0.1685,9.7478,-0.0026,-0.0076,-0.0168,0.1887,57.2,False,0.0408,0.0,False
DEV-82478,2026-06-11 11:54:57.000,Jaipur-Ajmer,26.45°N,74.64°E,-0.0604,0.0042,9.9407,-0.0201,-0.0169,-0.0017,0.144,20.0,False,0.0326,0.0,False
DEV-75392,2026-06-11 09:06:59.000,Jaipur-Ajmer,26.45°N,74.64°E,0.2601,0.2579,9.773,-0.0275,-0.0094,0.0021,0.3681,206.8,False,0.0702,0.0,False
DEV-60146,2026-06-11 01:40:57.000,Mumbai-Pune,18.52°N,73.86°E,-0.121,0.2954,9.9562,0.0144,-0.0029,0.0019,0.3511,192.6,False,0.0431,0.0,False
DEV-13406,2026-06-10 09:14:03.000,Delhi-Agra,27.18°N,78.01°E,0.0638,0.1168,9.8746,0.0055,-0.0179,-0.0036,0.1479,23.3,False,0.0746,0.0,False
DEV-66895,2026-06-12 12:56:21.000,Mumbai-Pune,18.52°N,73.86°E,0.2285,-0.1202,9.6968,-0.0182,-0.0203,0.0237,0.2819,134.9,False,0.0719,0.0,False
DEV-80092,2026-06-12 14:59:17.000,Jaipur-Ajmer,26.45°N,74.64°E,0.0041,-0.2178,9.6235,-0.0162,0.015,-0.0051,0.2868,139.0,False,0.0478,0.0,False
DEV-11990,2026-06-11 23:41:44.000,Jaipur-Ajmer,26.45°N,74.64°E,-0.0887,-0.0085,9.7128,0.0225,0.0095,-0.0036,0.1319,9.9,False,0.0368,0.0,False
DEV-96406,2026-06-12 07:42:19.000,Mumbai-Pune,18.52°N,73.86°E,0.0001,0.1501,9.7681,0.0171,-0.0142,-0.0094,0.1558,29.8,False,0.035,0.0,False
DEV-11162,2026-06-12 05:33:08.000,Kolkata-Asansol,23.68°N,86.98°E,-0.9262,2.0662,10.7081,-0.6653,-0.0613,0.0194,2.4359,1929.9,True,0.7998,0.987,True
DEV-33567,2026-06-12 19:28:54.000,Kolkata-Asansol,23.68°N,86.98°E,0.3308,0.1021,9.7918,0.0271,-0.0028,0.005,0.3467,188.9,False,0.0355,0.0,False
DEV-95799,2026-06-12 15:17:18.000,Mumbai-Pune,18.52°N,73.86°E,-0.1077,0.0027,9.884,0.036,-0.0081,-0.0091,0.1307,8.9,False,0.0223,0.0,False
DEV-43743,2026-06-12 07:50:22.000,Kolkata-Asansol,23.68°N,86.98°E,-0.0385,-0.0169,9.8042,-0.0069,-0.0034,-0.0113,0.0424,0,False,0.021,0.0,False
DEV-36744,2026-06-12 19:31:33.000,Mumbai-Pune,18.52°N,73.86°E,0.1054,0.0243,9.8836,0.0151,0.0061,0.0039,0.1308,9.0,False,0.0395,0.0,False
DEV-63495,2026-06-11 09:02:29.000,Jaipur-Ajmer,26.45°N,74.64°E,-0.1925,-0.1907,9.8543,0.0139,0.0043,-0.0132,0.2746,128.8,False,0.0738,0.0,False
DEV-23924,2026-06-11 09:17:09.000,Chennai-Vellore,12.91°N,79.13°E,-0.0103,0.029,9.7651,0.0122,0.0157,0.0162,0.0544,0,False,0.0565,0.0,False
DEV-14272,2026-06-12 16:50:21.000,Mumbai-Pune,18.52°N,73.86°E,0.0344,-0.1403,9.746,-0.009,0.0083,0.0276,0.158,31.7,False,0.0594,0.0,False
DEV-92617,2026-06-10 16:55:41.000,Chennai-Vellore,12.91°N,79.13°E,-0.2212,-0.2411,10.0513,-0.016,-0.0642,-0.021,0.4066,238.8,False,0.0529,0.0,False
DEV-45282,2026-06-11 12:26:37.000,Kolkata-Asansol,23.68°N,86.98°E,0.1057,-0.1202,9.8958,0.0072,-0.0213,-0.0025,0.1816,51.3,False,0.0317,0.0,False
DEV-41594,2026-06-11 23:53:16.000,Mumbai-Pune,18.52°N,73.86°E,-0.1275,0.1892,9.8674,-0.002,-0.0212,0.0369,0.2353,96.1,False,0.0467,0.0,False
DEV-64899,2026-06-13 03:43:51.000,Chennai-Vellore,12.91°N,79.13°E,-0.1064,0.1142,9.9101,-0.0149,-0.0172,-0.0101,0.1854,54.5,False,0.0338,0.0,False
DEV-54770,2026-06-12 18:16:48.000,Delhi-Agra,27.18°N,78.01°E,0.0104,0.2628,9.7556,-0.0263,-0.0281,-0.0165,0.2686,123.8,False,0.0388,0.0,False
DEV-12033,2026-06-10 11:56:06.000,Chennai-Vellore,12.91°N,79.13°E,0.1954,-0.0165,9.7174,-0.0255,0.0331,-0.018,0.2169,80.8,False,0.03,0.0,False
DEV-31880,2026-06-11 12:29:00.000,Mumbai-Pune,18.52°N,73.86°E,-0.0406,-0.1312,9.94,0.0239,0.0022,-0.0029,0.1891,57.6,False,0.0794,0.0,False
DEV-25601,2026-06-10 15:38:22.000,Kolkata-Asansol,23.68°N,86.98°E,0.2834,-0.1272,9.7605,0.0161,-0.0296,-0.0083,0.3146,162.2,False,0.0402,0.0,False
DEV-63592,2026-06-12 18:03:14.000,Mumbai-Pune,18.52°N,73.86°E,-0.3574,-0.2573,9.9358,0.0092,-0.0134,0.0129,0.458,281.7,False,0.0578,0.0,False
DEV-20982,2026-06-12 11:56:09.000,Chennai-Vellore,12.91°N,79.13°E,-0.0798,0.0092,9.8654,0.0311,0.0406,-0.0177,0.0976,0,False,0.0291,0.0,False
DEV-22700,2026-06-10 06:34:00.000,Kolkata-Asansol,23.68°N,86.98°E,-0.0759,-0.1171,9.7886,0.0113,-0.0028,-0.012,0.1412,17.7,False,0.0339,0.0,False
DEV-33385,2026-06-11 17:55:13.000,Mumbai-Pune,18.52°N,73.86°E,-2.1834,-0.2029,7.748,-0.0474,-0.0757,0.2881,3.01,2408.3,True,1.1651,0.913,True
DEV-45893,2026-06-12 22:15:11.000,Jaipur-Ajmer,26.45°N,74.64°E,-0.1948,-0.0188,9.7826,-0.0061,-0.0022,0.0074,0.1976,64.7,False,0.0492,0.0,False
DEV-37111,2026-06-10 22:17:04.000,Delhi-Agra,27.18°N,78.01°E,0.3908,-0.1778,9.814,-0.0455,-0.0055,-0.0072,0.4294,257.8,False,0.0531,0.0,False
DEV-13378,2026-06-11 19:02:32.000,Delhi-Agra,27.18°N,78.01°E,3.7352,-2.1864,8.248,-0.1775,0.6611,0.0237,4.6013,3734.4,True,0.7272,0.933,True
DEV-66657,2026-06-11 13:03:25.000,Jaipur-Ajmer,26.45°N,74.64°E,0.1158,0.094,9.9205,-0.0156,0.0088,-0.0037,0.1856,54.7,False,0.0496,0.0,False
DEV-52875,2026-06-10 12:19:30.000,Delhi-Agra,27.18°N,78.01°E,-0.0086,-0.0593,9.7903,0.0065,0.0087,-0.0233,0.0631,0,False,0.0294,0.0,False
DEV-23164,2026-06-11 06:25:06.000,Mumbai-Pune,18.52°N,73.86°E,-0.0203,-0.1785,9.9191,0.0137,0.0044,-0.0026,0.2102,75.2,False,0.0759,0.0,False
DEV-27940,2026-06-12 15:49:54.000,Kolkata-Asansol,23.68°N,86.98°E,0.1199,-0.1482,9.8255,-0.0037,-0.0017,-0.0014,0.1913,59.4,False,0.0552,0.0,False
DEV-21627,2026-06-12 21:30:19.000,Delhi-Agra,27.18°N,78.01°E,-0.0082,0.0685,9.8608,-0.0299,-0.0027,0.0098,0.0857,0,False,0.077,0.0,False
DEV-44481,2026-06-12 20:24:58.000,Jaipur-Ajmer,26.45°N,74.64°E,0.056,0.0009,9.7588,-0.0049,0.0091,0.014,0.0759,0,False,0.0568,0.0,False
DEV-97552,2026-06-12 03:56:59.000,Kolkata-Asansol,23.68°N,86.98°E,-0.1072,0.1201,9.9674,-0.0116,0.022,-0.0258,0.2251,87.6,False,0.0491,0.0,False
DEV-47653,2026-06-12 16:01:02.000,Jaipur-Ajmer,26.45°N,74.64°E,-0.1071,0.1075,9.8421,0.0056,0.0246,-0.0171,0.1551,29.2,False,0.0452,0.0,False
DEV-26784,2026-06-11 14:33:43.000,Mumbai-Pune,18.52°N,73.86°E,-0.0832,0.034,9.9232,-0.008,-0.0116,0.0124,0.1445,20.4,False,0.0664,0.0,False
DEV-83696,2026-06-11 17:13:29.000,Chennai-Vellore,12.91°N,79.13°E,-0.014,-0.0269,9.8037,0.0138,0.0122,-0.0124,0.031,0,False,0.0663,0.0,False
DEV-54543,2026-06-11 01:02:58.000,Jaipur-Ajmer,26.45°N,74.64°E,-0.1257,0.0817,9.668,0.0262,-0.0037,0.0241,0.2065,72.1,False,0.0582,0.0,False
DEV-90052,2026-06-10 09:19:21.000,Mumbai-Pune,18.52°N,73.86°E,0.0549,0.241,9.6744,-0.0078,0.0404,0.0252,0.2819,134.9,False,0.0398,0.0,False
DEV-82468,2026-06-12 02:03:06.000,Kolkata-Asansol,23.68°N,86.98°E,-0.5628,-2.6603,10.9957,0.3356,0.5087,-0.2682,2.9664,2372.0,True,0.4976,0.914,True
DEV-64184,2026-06-11 20:59:30.000,Delhi-Agra,27.18°N,78.01°E,0.0792,-0.1024,9.7967,-0.0162,0.0102,0.0123,0.1301,8.4,False,0.0329,0.0,False
DEV-30571,2026-06-12 11:23:59.000,Delhi-Agra,27.18°N,78.01°E,0.0294,0.0054,9.8446,-0.0034,-0.0185,0.0103,0.0457,0,False,0.037,0.0,False
DEV-45389,2026-06-10 07:45:55.000,Delhi-Agra,27.18°N,78.01°E,-0.0149,-0.0291,9.8099,-0.0366,-0.0146,0.0105,0.0327,0,False,0.0717,0.0,False
DEV-22524,2026-06-10 11:34:21.000,Vadodara-Surat,22.30°N,73.10°E,-0.0702,-0.1867,9.9408,0.0042,-0.0433,-0.0087,0.2385,98.8,False,0.0642,0.0,False
DEV-36563,2026-06-12 15:43:00.000,Chennai-Vellore,12.91°N,79.13°E,-0.1022,-0.064,9.7672,0.0214,0.0158,0.0018,0.128,6.7,False,0.026,0.0,False
DEV-79888,2026-06-13 04:34:46.000,Jaipur-Ajmer,26.45°N,74.64°E,-0.1135,0.089,9.8242,0.0201,-0.0029,0.0121,0.1449,20.8,False,0.0504,0.0,False
DEV-13262,2026-06-11 09:50:46.000,Vadodara-Surat,22.30°N,73.10°E,-0.0519,-0.2922,9.8201,-0.0316,-0.0251,0.0058,0.2969,147.4,False,0.0438,0.0,False
DEV-32184,2026-06-10 22:54:07.000,Chennai-Vellore,12.91°N,79.13°E,-0.1985,-0.0665,9.7379,0.0317,0.0089,-0.001,0.2214,84.5,False,0.0325,0.0,False
DEV-17724,2026-06-13 02:36:04.000,Chennai-Vellore,12.91°N,79.13°E,0.1317,0.0613,9.8612,-0.0207,0.0181,-0.0214,0.154,28.3,False,0.066,0.0,False
DEV-37423,2026-06-11 00:21:06.000,Chennai-Vellore,12.91°N,79.13°E,-0.045,0.0584,9.7652,0.0233,-0.0018,0.0009,0.0863,0,False,0.0653,0.0,False
DEV-20673,2026-06-12 15:52:04.000,Chennai-Vellore,12.91°N,79.13°E,-0.0841,0.1609,9.7552,0.0283,-0.0394,-0.0027,0.1896,58.0,False,0.0753,0.0,False
DEV-24898,2026-06-11 12:59:55.000,Jaipur-Ajmer,26.45°N,74.64°E,0.0173,0.0143,9.7696,-0.0013,0.0131,0.0286,0.0462,0,False,0.0223,0.0,False
DEV-67079,2026-06-11 12:53:16.000,Chennai-Vellore,12.91°N,79.13°E,0.0568,-0.131,9.8094,-0.0252,-0.0135,0.0074,0.1428,19.0,False,0.0797,0.0,False
DEV-90478,2026-06-12 10:25:28.000,Jaipur-Ajmer,26.45°N,74.64°E,-0.1383,0.2263,9.7656,-0.0047,-0.0076,0.0221,0.2689,124.1,False,0.0771,0.0,False
DEV-31527,2026-06-11 09:02:01.000,Kolkata-Asansol,23.68°N,86.98°E,-0.1016,0.0144,9.746,0.029,0.0458,-0.0008,0.1209,0.8,False,0.0515,0.0,False
DEV-22300,2026-06-12 18:23:44.000,Chennai-Vellore,12.91°N,79.13°E,-0.8887,0.4298,12.0656,0.4492,-0.0855,0.179,2.4622,1951.8,True,0.8533,0.936,False
DEV-65858,2026-06-11 16:07:45.000,Kolkata-Asansol,23.68°N,86.98°E,-0.1133,0.124,9.8269,0.0278,0.0144,-0.0053,0.1688,40.7,False,0.0551,0.0,False
DEV-38369,2026-06-11 04:15:50.000,Mumbai-Pune,18.52°N,73.86°E,-0.0944,0.0525,9.6965,-0.0075,0.0102,0.004,0.1567,30.6,False,0.0368,0.0,False
DEV-46338,2026-06-11 01:08:47.000,Kolkata-Asansol,23.68°N,86.98°E,0.0579,-0.1528,9.8172,-0.0178,0.0037,-0.0199,0.1636,36.3,False,0.078,0.0,False
DEV-29200,2026-06-12 11:41:09.000,Kolkata-Asansol,23.68°N,86.98°E,-0.0897,0.0121,9.86,-0.0588,0.0303,0.0147,0.1034,0,False,0.0286,0.0,False
DEV-75585,2026-06-11 16:37:20.000,Vadodara-Surat,22.30°N,73.10°E,0.039,-0.0239,9.7241,-0.0016,-0.0091,-0.0115,0.0973,0,False,0.0656,0.0,False
DEV-89348,2026-06-10 23:31:57.000,Kolkata-Asansol,23.68°N,86.98°E,0.0352,-0.1857,9.7164,0.0302,-0.0033,0.0055,0.2109,75.8,False,0.0705,0.0,False
DEV-99832,2026-06-13 03:34:01.000,Delhi-Agra,27.18°N,78.01°E,0.1186,-0.1637,9.8649,-0.0217,-0.0352,0.0016,0.2095,74.6,False,0.0272,0.0,False
DEV-90868,2026-06-12 23:31:07.000,Chennai-Vellore,12.91°N,79.13°E,0.1315,0.2165,9.8944,-0.0271,-0.0119,0.013,0.267,122.5,False,0.0536,0.0,False
DEV-50683,2026-06-13 01:02:11.000,Delhi-Agra,27.18°N,78.01°E,0.1074,0.1796,9.8962,0.0014,-0.0021,-0.0003,0.2263,88.6,False,0.0397,0.0,False
DEV-43166,2026-06-13 00:20:23.000,Mumbai-Pune,18.52°N,73.86°E,-0.0243,-0.0003,9.7933,0.0286,-0.0127,-0.0118,0.0295,0,False,0.0365,0.0,False
DEV-94875,2026-06-10 10:10:01.000,Kolkata-Asansol,23.68°N,86.98°E,0.2243,-0.2083,9.9231,-0.0005,-0.0226,0.001,0.3263,171.9,False,0.065,0.0,False
DEV-64994,2026-06-12 16:47:43.000,Vadodara-Surat,22.30°N,73.10°E,3.7532,0.573,10.6496,0.5359,0.1281,-0.1156,3.8884,3140.3,True,1.0755,0.92,True
DEV-98079,2026-06-12 09:44:37.000,Vadodara-Surat,22.30°N,73.10°E,0.0758,-0.0754,9.8801,-0.0233,-0.0014,-0.0134,0.1278,6.5,False,0.0709,0.0,False
DEV-97519,2026-06-11 05:02:43.000,Jaipur-Ajmer,26.45°N,74.64°E,0.2392,-0.0165,9.801,0.0025,-0.0106,-0.0134,0.2399,99.9,False,0.0602,0.0,False
DEV-76252,2026-06-10 10:43:47.000,Delhi-Agra,27.18°N,78.01°E,-0.2424,-0.0019,9.8848,0.0109,-0.0021,0.0099,0.2537,111.4,False,0.0446,0.0,False
DEV-21284,2026-06-12 04:15:40.000,Jaipur-Ajmer,26.45°N,74.64°E,0.1207,-0.0375,9.7728,-0.0037,-0.0372,0.006,0.1318,9.8,False,0.054,0.0,False
DEV-11368,2026-06-11 15:42:54.000,Vadodara-Surat,22.30°N,73.10°E,0.2044,0.1046,9.8521,0.0246,0.0333,-0.0055,0.2334,94.5,False,0.0331,0.0,False
DEV-27397,2026-06-11 09:16:20.000,Chennai-Vellore,12.91°N,79.13°E,-0.0182,-0.0892,9.8698,-0.0245,0.0106,-0.0057,0.1089,0,False,0.0386,0.0,False
DEV-48657,2026-06-11 09:37:13.000,Jaipur-Ajmer,26.45°N,74.64°E,-0.035,0.1523,9.6797,0.0195,-0.0019,0.0099,0.2035,69.6,False,0.0356,0.0,False
DEV-32344,2026-06-11 14:00:38.000,Mumbai-Pune,18.52°N,73.86°E,-0.0875,0.0901,9.8236,-0.0241,0.0146,-0.0201,0.1263,5.2,False,0.0222,0.0,False
DEV-37190,2026-06-12 18:46:57.000,Kolkata-Asansol,23.68°N,86.98°E,-0.1003,-0.0195,9.7881,-0.0176,0.0133,-0.0248,0.1045,0,False,0.0405,0.0,False
DEV-25112,2026-06-13 04:31:23.000,Kolkata-Asansol,23.68°N,86.98°E,-0.0051,-0.0949,9.7552,-0.0011,0.0031,0.0114,0.1097,0,False,0.051,0.0,False
DEV-23711,2026-06-12 03:57:22.000,Delhi-Agra,27.18°N,78.01°E,-0.1297,0.0217,9.702,-0.0114,0.0144,-0.0077,0.1702,41.8,False,0.0578,0.0,False
DEV-81667,2026-06-12 21:18:09.000,Vadodara-Surat,22.30°N,73.10°E,-0.1343,0.0167,9.8522,-0.0074,-0.0075,0.007,0.1418,18.2,False,0.0312,0.0,False
DEV-58918,2026-06-10 07:35:01.000,Chennai-Vellore,12.91°N,79.13°E,-0.1892,0.0425,9.7359,0.008,0.0077,-0.0099,0.2076,73.0,False,0.0561,0.0,False
DEV-65822,2026-06-11 17:08:19.000,Jaipur-Ajmer,26.45°N,74.64°E,0.3341,0.0689,9.8284,0.0465,0.0086,-0.0032,0.3416,184.7,False,0.0664,0.0,False
DEV-36012,2026-06-13 03:28:00.000,Kolkata-Asansol,23.68°N,86.98°E,0.1768,0.0257,9.9574,-0.0196,0.0467,-0.0078,0.2316,93.0,False,0.0771,0.0,False
DEV-70124,2026-06-11 23:21:34.000,Delhi-Agra,27.18°N,78.01°E,-0.1898,0.2638,9.8776,-0.0032,0.0036,-0.0268,0.3319,176.6,False,0.0438,0.0,False
DEV-42077,2026-06-11 15:32:20.000,Vadodara-Surat,22.30°N,73.10°E,0.0283,0.0702,9.7919,0.012,0.0134,-0.0125,0.0778,0,False,0.0292,0.0,False
DEV-59321,2026-06-11 22:26:21.000,Mumbai-Pune,18.52°N,73.86°E,0.4455,0.5796,8.9529,-0.1233,0.0924,0.3298,1.1265,838.8,True,1.0735,0.966,True
DEV-65652,2026-06-10 12:58:39.000,Chennai-Vellore,12.91°N,79.13°E,0.0066,-0.064,9.8349,-0.0423,0.0137,-0.022,0.069,0,False,0.0558,0.0,False
DEV-57484,2026-06-11 20:53:35.000,Vadodara-Surat,22.30°N,73.10°E,-0.1918,-0.2787,9.9742,0.007,0.0064,0.0099,0.3761,213.4,False,0.0404,0.0,False
DEV-67068,2026-06-12 17:56:46.000,Vadodara-Surat,22.30°N,73.10°E,0.0035,-0.2662,9.7834,-0.0086,0.0052,0.0096,0.2675,122.9,False,0.0256,0.0,False
DEV-33529,2026-06-11 09:58:00.000,Jaipur-Ajmer,26.45°N,74.64°E,0.0756,0.0841,9.7686,-0.0204,-0.0034,0.0373,0.1204,0.3,False,0.0298,0.0,False
DEV-11602,2026-06-12 07:41:11.000,Kolkata-Asansol,23.68°N,86.98°E,-0.0608,0.0109,9.7955,-0.0085,0.0234,-0.0206,0.0634,0,False,0.0297,0.0,False
DEV-65703,2026-06-10 15:22:28.000,Kolkata-Asansol,23.68°N,86.98°E,-0.0089,-0.0169,9.7423,-0.0245,-0.0059,0.0024,0.0703,0,False,0.0355,0.0,False
DEV-57823,2026-06-12 04:10:30.000,Vadodara-Surat,22.30°N,73.10°E,0.0531,-0.1242,9.7468,0.0162,-0.0126,0.016,0.1491,24.3,False,0.0267,0.0,False
DEV-35901,2026-06-10 19:01:21.000,Chennai-Vellore,12.91°N,79.13°E,-0.1672,0.1202,9.8525,0.0147,0.0245,-0.0081,0.2103,75.2,False,0.0509,0.0,False
DEV-88555,2026-06-12 02:44:52.000,Jaipur-Ajmer,26.45°N,74.64°E,-0.1539,0.0534,9.9659,0.01,-0.0062,0.0012,0.2255,87.9,False,0.0612,0.0,False
DEV-52550,2026-06-11 00:22:25.000,Chennai-Vellore,12.91°N,79.13°E,-0.0793,0.2127,9.7616,-0.0033,-0.0023,0.0022,0.2321,93.4,False,0.0379,0.0,False
DEV-28958,2026-06-10 08:35:36.000,Kolkata-Asansol,23.68°N,86.98°E,-0.0209,-0.1468,9.7705,0.0075,-0.0101,-0.0017,0.1535,27.9,False,0.058,0.0,False
DEV-84588,2026-06-11 13:23:30.000,Mumbai-Pune,18.52°N,73.86°E,-0.2007,0.0433,9.961,-0.0211,0.0338,-0.0115,0.2549,112.4,False,0.0475,0.0,False
DEV-20323,2026-06-10 11:34:23.000,Mumbai-Pune,18.52°N,73.86°E,0.2487,0.2624,9.7028,-0.0315,-0.0413,0.0284,0.3771,214.2,False,0.0403,0.0,False
DEV-66811,2026-06-12 04:21:57.000,Jaipur-Ajmer,26.45°N,74.64°E,-0.0776,0.0447,9.8074,-0.032,-0.0004,-0.0061,0.0896,0,False,0.0779,0.0,False
DEV-85148,2026-06-12 15:47:29.000,Delhi-Agra,27.18°N,78.01°E,0.2073,-0.0053,9.6721,-0.0087,-0.0022,-0.0045,0.249,107.5,False,0.0484,0.0,False
DEV-47344,2026-06-12 13:23:37.000,Chennai-Vellore,12.91°N,79.13°E,-0.036,-0.0713,9.7855,-0.0001,-0.0102,0.0056,0.0835,0,False,0.0364,0.0,False
DEV-39009,2026-06-11 11:39:00.000,Delhi-Agra,27.18°N,78.01°E,-0.8148,0.4055,9.6799,0.5377,0.3028,-0.0396,0.9194,666.2,True,0.6186,0.967,True
DEV-83093,2026-06-12 02:31:11.000,Mumbai-Pune,18.52°N,73.86°E,-0.1289,-0.0846,9.7155,0.0128,-0.022,-0.0044,0.1808,50.7,False,0.0208,0.0,False
